{
"type": "FeatureCollection",
"name": "health_units",
"crs": { "type": "name", "properties": { "name": "urn:ogc:def:crs:OGC:1.3:CRS84" } },
"features": [
{ "type": "Feature", "properties": { "name": "CENTRO DE SALUD ABASTO", "category": "Health unit" }, "geometry": { "type": "Point", "coordinates": [ -60.7422803, -31.5605054 ] } },
{ "type": "Feature", "properties": { "name": "CENTRO DE SALUD CABAÑA LEIVA", "category": "Health unit" }, "geometry": { "type": "Point", "coordinates": [ -60.733778000139864, -31.566389211371309 ] } },
{ "type": "Feature", "properties": { "name": "CENTRO DE SALUD SAN AGUSTIN - LA CAPITAL", "category": "Health unit" }, "geometry": { "type": "Point", "coordinates": [ -60.7462466, -31.5642599 ] } },
{ "type": "Feature", "properties": { "name": "CENTRO DE SALUD MONSEÑOR ANTONIO RODRIGUEZ", "category": "Health unit" }, "geometry": { "type": "Point", "coordinates": [ -60.738703608512878, -31.566074292298577 ] } },
{ "type": "Feature", "properties": { "name": "CIC CALLEJON ROCA", "category": "Health unit" }, "geometry": { "type": "Point", "coordinates": [ -60.684519767892198, -31.578385527766965 ] } },
{ "type": "Feature", "properties": { "name": "CTRO DE SALUD SARMIENTO JUVENTUD UNIDAD DEL NORTE DR GUSTAVO D ASCENZO", "category": "Health unit" }, "geometry": { "type": "Point", "coordinates": [ -60.7259618, -31.5751474 ] } },
{ "type": "Feature", "properties": { "name": "CENTRO DE SALUD ALTOS DEL VALLE", "category": "Health unit" }, "geometry": { "type": "Point", "coordinates": [ -60.68447470664978, -31.57364989144514 ] } },
{ "type": "Feature", "properties": { "name": "CENTRO DE SALUD LAS DELICIAS", "category": "Health unit" }, "geometry": { "type": "Point", "coordinates": [ -60.695373058351834, -31.583049634253278 ] } },
{ "type": "Feature", "properties": { "name": "CENTRO DE SALUD ESTANISLAO LOPEZ", "category": "Health unit" }, "geometry": { "type": "Point", "coordinates": [ -60.734363794326782, -31.577324349516864 ] } },
{ "type": "Feature", "properties": { "name": "CENTRO DE SALUD BARRIO LOS TRONCOS", "category": "Health unit" }, "geometry": { "type": "Point", "coordinates": [ -60.745092630386353, -31.582470175439909 ] } },
{ "type": "Feature", "properties": { "name": "CENTRO DE SALUD LOYOLA SUR", "category": "Health unit" }, "geometry": { "type": "Point", "coordinates": [ -60.726812199999983, -31.5810478 ] } },
{ "type": "Feature", "properties": { "name": "CENTRO DE SALUD N° 9 BARRIO NUEVA POMPEYA", "category": "Health unit" }, "geometry": { "type": "Point", "coordinates": [ -60.711755991014797, -31.587621200861697 ] } },
{ "type": "Feature", "properties": { "name": "CENTRO DE SALUD DR. RENE FAVALORO - SANTA FE", "category": "Health unit" }, "geometry": { "type": "Point", "coordinates": [ -60.7129986, -31.5926722 ] } },
{ "type": "Feature", "properties": { "name": "CENTRO DE SALUD  SAN MARTIN DE PORRES", "category": "Health unit" }, "geometry": { "type": "Point", "coordinates": [ -60.698993504047394, -31.592775825398849 ] } },
{ "type": "Feature", "properties": { "name": "CENTRO DE SALUD FONAVI BARRIO LAS FLORES II", "category": "Health unit" }, "geometry": { "type": "Point", "coordinates": [ -60.712971643893013, -31.592518852346 ] } },
{ "type": "Feature", "properties": { "name": "CENTRO DE SALUD N° 8 BARRIO SAN MARTIN", "category": "Health unit" }, "geometry": { "type": "Point", "coordinates": [ -60.716901600000028, -31.5967633 ] } },
{ "type": "Feature", "properties": { "name": "CENTRO DE SALUD BARRIO VILLA HIPODROMO", "category": "Health unit" }, "geometry": { "type": "Point", "coordinates": [ -60.719718933105469, -31.606417833838144 ] } },
{ "type": "Feature", "properties": { "name": "CENTRO DE SALUD CAPILLA SAN JOSE", "category": "Health unit" }, "geometry": { "type": "Point", "coordinates": [ -60.709749699999975, -31.5998748 ] } },
{ "type": "Feature", "properties": { "name": "CENTRO DE SALUD BARRIO ACERIA", "category": "Health unit" }, "geometry": { "type": "Point", "coordinates": [ -60.668916584328031, -31.598284649082 ] } },
{ "type": "Feature", "properties": { "name": "CENTRO DE SALUD SETUBAL", "category": "Health unit" }, "geometry": { "type": "Point", "coordinates": [ -60.665396690401394, -31.598183750602367 ] } },
{ "type": "Feature", "properties": { "name": "CENTRO DE SALUD GUADALUPE CENTRAL PADRE TRUCCO", "category": "Health unit" }, "geometry": { "type": "Point", "coordinates": [ -60.675650238990784, -31.602903291620958 ] } },
{ "type": "Feature", "properties": { "name": "CENTRO DE SALUD BARRIO CABAL", "category": "Health unit" }, "geometry": { "type": "Point", "coordinates": [ -60.691291889610966, -31.605190834199 ] } },
{ "type": "Feature", "properties": { "name": "CENTRO DE SALUD LAS LOMAS", "category": "Health unit" }, "geometry": { "type": "Point", "coordinates": [ -60.699763298034668, -31.603393302377459 ] } },
{ "type": "Feature", "properties": { "name": "CENTRO DE SALUD ADELINA ESTE", "category": "Health unit" }, "geometry": { "type": "Point", "coordinates": [ -60.665330700000027, -31.6040796 ] } },
{ "type": "Feature", "properties": { "name": "CENTRO DE SALUD PADRE COBOS", "category": "Health unit" }, "geometry": { "type": "Point", "coordinates": [ -60.712600350379944, -31.607452639643391 ] } },
{ "type": "Feature", "properties": { "name": "CENTRO DE SALUD N° 6 BARRIO LOS HORNOS", "category": "Health unit" }, "geometry": { "type": "Point", "coordinates": [ -60.704950100000019, -31.6123461 ] } },
{ "type": "Feature", "properties": { "name": "CENTRO DE SALUD ALBERDI - SANTA FE", "category": "Health unit" }, "geometry": { "type": "Point", "coordinates": [ -60.683755, -31.611825 ] } },
{ "type": "Feature", "properties": { "name": "CENTRO DE SALUD POLICLINICO VECINAL", "category": "Health unit" }, "geometry": { "type": "Point", "coordinates": [ -60.694095399999981, -31.6190725 ] } },
{ "type": "Feature", "properties": { "name": "CENTRO DE SALUD NUEVO HORIZONTE", "category": "Health unit" }, "geometry": { "type": "Point", "coordinates": [ -60.715384483337402, -31.618524113405879 ] } },
{ "type": "Feature", "properties": { "name": "CENTRO DE SALUD BARRIO BARRANQUITAS OESTE", "category": "Health unit" }, "geometry": { "type": "Point", "coordinates": [ -60.719800472325005, -31.620426255209868 ] } },
{ "type": "Feature", "properties": { "name": "CENTRO DE SALUD COLASTINE", "category": "Health unit" }, "geometry": { "type": "Point", "coordinates": [ -60.6031, -31.623566667 ] } },
{ "type": "Feature", "properties": { "name": "CENTRO DE SALUD GUTIERREZ ESTE", "category": "Health unit" }, "geometry": { "type": "Point", "coordinates": [ -60.684512679500983, -31.626904632275998 ] } },
{ "type": "Feature", "properties": { "name": "CENTRO DE SALUD QUILMES", "category": "Health unit" }, "geometry": { "type": "Point", "coordinates": [ -60.709759891033173, -31.629033599695376 ] } },
{ "type": "Feature", "properties": { "name": "CENTRO DE SALUD CRISTO OBRERO", "category": "Health unit" }, "geometry": { "type": "Point", "coordinates": [ -60.722590586927026, -31.631776473725999 ] } },
{ "type": "Feature", "properties": { "name": "CENTRO REGIONAL DE HEMOTERAPIA CENTRO NORTE - CRH NORTE", "category": "Health unit" }, "geometry": { "type": "Point", "coordinates": [ -60.716976, -31.6344047 ] } },
{ "type": "Feature", "properties": { "name": "CENTRO DE SALUD LA GUARDIA", "category": "Health unit" }, "geometry": { "type": "Point", "coordinates": [ -60.6263, -31.638283333 ] } },
{ "type": "Feature", "properties": { "name": "SAMCO BARRIO EL POZO", "category": "Health unit" }, "geometry": { "type": "Point", "coordinates": [ -60.659326314926147, -31.635566172157169 ] } },
{ "type": "Feature", "properties": { "name": "CENTRO DE SALUD BARRIO CANDIOTI", "category": "Health unit" }, "geometry": { "type": "Point", "coordinates": [ -60.691872239112854, -31.638135798964811 ] } },
{ "type": "Feature", "properties": { "name": "CENTRO DE SALUD BARRIO MENDOZA OESTE", "category": "Health unit" }, "geometry": { "type": "Point", "coordinates": [ -60.732203200000015, -31.6428189 ] } },
{ "type": "Feature", "properties": { "name": "CENTRO DE SALUD EVITA BARRIO LA FLORIDA", "category": "Health unit" }, "geometry": { "type": "Point", "coordinates": [ -60.7266128, -31.6488783 ] } },
{ "type": "Feature", "properties": { "name": "CENTRO DE SALUD ALTO VERDE", "category": "Health unit" }, "geometry": { "type": "Point", "coordinates": [ -60.6969676, -31.6563405 ] } },
{ "type": "Feature", "properties": { "name": "CENTRO DE SALUD ORATORIO SAN LORENZO PADRE GASPAROTTO", "category": "Health unit" }, "geometry": { "type": "Point", "coordinates": [ -60.728784799999971, -31.6559883 ] } },
{ "type": "Feature", "properties": { "name": "CENTRO DE SALUD POLICLINICO BARRIO CENTENARIO", "category": "Health unit" }, "geometry": { "type": "Point", "coordinates": [ -60.719408011553014, -31.663280354872001 ] } },
{ "type": "Feature", "properties": { "name": "CENTRO DE SALUD BARRIO CHALET", "category": "Health unit" }, "geometry": { "type": "Point", "coordinates": [ -60.723280906677246, -31.662786563002644 ] } },
{ "type": "Feature", "properties": { "name": "CENTRO DE SALUD FONAVI BARRIO CENTENARIO", "category": "Health unit" }, "geometry": { "type": "Point", "coordinates": [ -60.726359009759108, -31.663673035283328 ] } },
{ "type": "Feature", "properties": { "name": "CENTRO DE SALUD VARADERO SARSOTTI", "category": "Health unit" }, "geometry": { "type": "Point", "coordinates": [ -60.733913, -31.66741 ] } },
{ "type": "Feature", "properties": { "name": "CENTRO DE SALUD DEMETRIO GOMEZ", "category": "Health unit" }, "geometry": { "type": "Point", "coordinates": [ -60.69959, -31.66745 ] } },
{ "type": "Feature", "properties": { "name": "CENTRO DE SALUD LA BOCA - RAMON RIVERO", "category": "Health unit" }, "geometry": { "type": "Point", "coordinates": [ -60.70081, -31.66352 ] } },
{ "type": "Feature", "properties": { "name": "CENTRO DE SALUD EMAUS - SANTA FE", "category": "Health unit" }, "geometry": { "type": "Point", "coordinates": [ -60.726271569728851, -31.668607949418423 ] } },
{ "type": "Feature", "properties": { "name": "HOSPITAL PROVINCIAL  SAYAGO", "category": "Hospital" }, "geometry": { "type": "Point", "coordinates": [ -60.725877699999955, -31.5849591 ] } },
{ "type": "Feature", "properties": { "name": "HOSPITAL DR. JOSE BERNARDO ITURRASPE", "category": "Hospital" }, "geometry": { "type": "Point", "coordinates": [ -60.715843677553494, -31.632983799703673 ] } },
{ "type": "Feature", "properties": { "name": "HOSPITAL DE NIÑOS DR. ORLANDO ALASSIA", "category": "Hospital" }, "geometry": { "type": "Point", "coordinates": [ -60.727593898773193, -31.644074613616127 ] } },
{ "type": "Feature", "properties": { "name": "HOSPITAL DR. JOSE MARIA CULLEN", "category": "Hospital" }, "geometry": { "type": "Point", "coordinates": [ -60.719151, -31.648588 ] } },
{ "type": "Feature", "properties": { "name": "CEMAFE HEROES DE MALVINAS", "category": "Health unit" }, "geometry": { "type": "Point", "coordinates": [ -60.7052008, -31.6497377 ] } }
]
}
